[
  {
    "name": "新宿",
    "prefecture": "東京都",
    "city": "新宿区",
    "railway_company": "JR東日本",
    "line_name": null,
    "station_code": null,
    "latitude": null,
    "longitude": null,
    "aliases": []
  },
  {
    "name": "渋谷",
    "prefecture": "東京都",
    "city": "渋谷区",
    "railway_company": "JR東日本",
    "line_name": null,
    "station_code": null,
    "latitude": null,
    "longitude": null,
    "aliases": []
  },
  {
    "name": "池袋",
    "prefecture": "東京都",
    "city": "豊島区",
    "railway_company": "JR東日本",
    "line_name": null,
    "station_code": null,
    "latitude": null,
    "longitude": null,
    "aliases": []
  },
  {
    "name": "東京",
    "prefecture": "東京都",
    "city": "千代田区",
    "railway_company": "JR東日本",
    "line_name": null,
    "station_code": null,
    "latitude": null,
    "longitude": null,
    "aliases": []
  },
  {
    "name": "品川",
    "prefecture": "東京都",
    "city": "港区",
    "railway_company": "JR東日本",
    "line_name": null,
    "station_code": null,
    "latitude": null,
    "longitude": null,
    "aliases": []
  },
  {
    "name": "上野",
    "prefecture": "東京都",
    "city": "台東区",
    "railway_company": "JR東日本",
    "line_name": null,
    "station_code": null,
    "latitude": null,
    "longitude": null,
    "aliases": []
  },
  {
    "name": "秋葉原",
    "prefecture": "東京都",
    "city": "千代田区",
    "railway_company": "JR東日本",
    "line_name": null,
    "station_code": null,
    "latitude": null,
    "longitude": null,
    "aliases": []
  },
  {
    "name": "有楽町",
    "prefecture": "東京都",
    "city": "千代田区",
    "railway_company": "JR東日本",
    "line_name": null,
    "station_code": null,
    "latitude": null,
    "longitude": null,
    "aliases": []
  },
  {
    "name": "新橋",
    "prefecture": "東京都",
    "city": "港区",
    "railway_company": "JR東日本",
    "line_name": null,
    "station_code": null,
    "latitude": null,
    "longitude": null,
    "aliases": []
  },
  {
    "name": "浜松町",
    "prefecture": "東京都",
    "city": "港区",
    "railway_company": "JR東日本",
    "line_name": null,
    "station_code": null,
    "latitude": null,
    "longitude": null,
    "aliases": []
  }
]
